{
    "features": [
        {
            "geometry": {
                "coordinates": [
                    120.212828,
                    22.947863
                ],
                "type": "Point"
            },
            "type": "Feature",
            "properties": {
                "entity_type": "机场",
                "entity_name": "嘉义机场",
                "desc": "嘉义机场（IATA代码：CYI；ICAO代码：RCKU）是一座位于台湾嘉义县水上乡的机场，俗称嘉义水上机场，简称水上机场，为军民合用机场。民用部分的管辖单位为台湾交通部民用航空局嘉义航空站，军用部分则为台湾国空军嘉义基地，驻扎有空军第四战术战斗机联队（前第455战术战斗机联队），也曾是驻台美军的军用机场。空军基地位于嘉义县水上乡、太保市与嘉义市交界，航空站出口位于嘉义县水上乡，距离嘉义市大约有8公里，距离中山高速公路水上交流道有7.50公里。"
            }
        },
        {
            "geometry": {
                "coordinates": [
                    119.628333,
                    23.568611
                ],
                "type": "Point"
            },
            "type": "Feature",
            "properties": {
                "entity_type": "机场",
                "entity_name": "澎湖机场",
                "desc": "澎湖机场（IATA代码：MZG；ICAO代码：RCQC），是一座位于台湾澎湖县湖西乡隘门村的军民合用机场，是澎湖县的主要联外机场，旧名“马公机场”。民用部分由交通部民用航空局马公航空管理及营运；军用部分为空军马公基地。"
            }
        },
        {
            "geometry": {
                "coordinates": [
                    121.5525,
                    25.069722
                ],
                "type": "Point"
            },
            "type": "Feature",
            "properties": {
                "entity_type": "机场",
                "entity_name": "台北松山机场",
                "desc": "台北松山机场（IATA代码：TSA；ICAO代码：RCSS），因其所在地又别称为松山机场、台北机场或松机，是位于台湾台北市松山区的机场，机场场区座落于台北市中心的北北西侧，南连敦化北路终点、北接基隆河岸，并以民权东路及民族东路与市区相隔，总面积2.13平方千米（213公顷），松山机场为军民合用机场。"
            }
        },
        {
            "geometry": {
                "coordinates": [
                    120.947472,
                    24.823861
                ],
                "type": "Point"
            },
            "type": "Feature",
            "properties": {
                "entity_type": "机场",
                "entity_name": "新竹机场",
                "desc": "空军新竹基地（IATA代码：HSZ；ICAO代码：RCPO，简称新竹机场）是位于台湾新竹市北区的军用机场，目前为台湾空军第二战术战斗机联队的驻扎地，也是幻象2000战斗机机队唯一进驻基地。"
            }
        },
        {
            "geometry": {
                "coordinates": [
                    121.168944,
                    22.786278
                ],
                "type": "Point"
            },
            "type": "Feature",
            "properties": {
                "entity_type": "机场",
                "entity_name": "志航机场",
                "desc": "空军志航基地（ICAO代码：RCQS）为一座位在台湾省台东县台东市富丰里的军用机场，隶属于台湾空军。志航基地又称为志航机场，场区位在台东市区北方，跑道横跨在海岸山脉终端都兰山与猴山之间[2]，该座机场为军事专用机场，主要由台湾空军第七飞行训练联队管理，并无提供任何民航机起降，台东地区之民航机起降业务则是由志航基地之南方的台东丰年机场负责。"
            }
        },
        {
            "geometry": {
                "coordinates": [
                    120.482222,
                    22.7
                ],
                "type": "Point"
            },
            "type": "Feature",
            "properties": {
                "entity_type": "机场",
                "entity_name": "台南机场",
                "desc": "台南航空站（IATA代码：TNN；ICAO代码：RCNN）或称为台南机场、台南空军基地，位于台湾省台南市，是云嘉南地区最大的机场，场站目前由军方管理，包含了军用的台湾空军台南基地和民用的交通部民用航空局台南航空站（Tainan Airport），同时也是航空器维修商亚洲航空总部与维修基地，面积约5.57平方公里（557公顷）"
            }
        },
        {
            "geometry": {
                "coordinates": [
                    120.620833,
                    24.265
                ],
                "type": "Point"
            },
            "type": "Feature",
            "properties": {
                "entity_type": "机场",
                "entity_name": "台中清泉岗机场",
                "desc": "台中清泉岗机场（IATA代码：RMQ；ICAO代码：RCMQ）是位于台湾台中市的机场，为台湾中部唯一的联外机场，场区横跨台中市的沙鹿、清水、神冈、大雅等区，占地达18.2平方公里（1,820公顷），是军民合用机场。"
            }
        },
        {
            "geometry": {
                "coordinates": [
                    121.61,
                    24.023333
                ],
                "type": "Point"
            },
            "type": "Feature",
            "properties": {
                "entity_type": "机场",
                "entity_name": "花莲机场",
                "desc": "花莲机场（IATA代码：HUN；ICAO代码：RCYU）是位于台湾花莲县新城乡的机场，场区位在花莲市中心北方，横亘整个新城乡最南部。该机场为一军民合用机场，也是东台湾第一座国际机场，主要由台湾空军管理，分为山侧的空军佳山基地、以及海侧的空军花莲基地；民用部分位于海侧，称为花莲航空站，由交通部民用航空局经营。由于本场为军民合用，机场内有大量军事设施，故禁止于起降时对机场内摄影。"
            }
        },
        {
            "geometry": {
                "coordinates": [
                    120.350278,
                    22.576944
                ],
                "type": "Point"
            },
            "type": "Feature",
            "properties": {
                "entity_type": "机场",
                "entity_name": "高雄小港机场"
            }
        },
        {
            "geometry": {
                "coordinates": [
                    120.73400072,
                    22.041154373
                ],
                "type": "Point"
            },
            "type": "Feature",
            "properties": {
                "entity_type": "机场",
                "entity_name": "五里亭机场"
            }
        },
        {
            "geometry": {
                "coordinates": [
                    119.502278,
                    23.367361
                ],
                "type": "Point"
            },
            "type": "Feature",
            "properties": {
                "entity_type": "机场",
                "entity_name": "望安机场"
            }
        },
        {
            "geometry": {
                "coordinates": [
                    119.4175,
                    23.213056
                ],
                "type": "Point"
            },
            "type": "Feature",
            "properties": {
                "entity_type": "机场",
                "entity_name": "七美机场"
            }
        },
        {
            "geometry": {
                "coordinates": [
                    121.466863211,
                    22.672361649
                ],
                "type": "Point"
            },
            "type": "Feature",
            "properties": {
                "entity_type": "机场",
                "entity_name": "绿岛机场"
            }
        },
        {
            "geometry": {
                "coordinates": [
                    121.535698999,
                    22.0274753
                ],
                "type": "Point"
            },
            "type": "Feature",
            "properties": {
                "entity_type": "机场",
                "entity_name": "兰屿机场"
            }
        },
        {
            "geometry": {
                "coordinates": [
                    120.002778,
                    26.224167
                ],
                "type": "Point"
            },
            "type": "Feature",
            "properties": {
                "entity_type": "机场",
                "entity_name": "北竿机场"
            }
        },
        {
            "geometry": {
                "coordinates": [
                  119.95633209199281,
                  26.157910616664548
                ],
                "type": "Point"
            },
            "type": "Feature",
            "properties": {
                "entity_type": "机场",
                "entity_name": "南竿机场"
            }
        },
        {
            "geometry": {
                "coordinates": [
                    121.100278,
                    22.755278
                ],
                "type": "Point"
            },
            "type": "Feature",
            "properties": {
                "entity_type": "机场",
                "entity_name": "台东机场"
            }
        },
        {
            "geometry": {
                "coordinates": [
                    118.361111,
                    24.428889
                ],
                "type": "Point"
            },
            "type": "Feature",
            "properties": {
                "entity_type": "机场",
                "entity_name": "金门机场"
            }
        }
    ],
    "type": "FeatureCollection"
}
